nombre_zona,municipio,latitud,longitud
Polişgono Industrial San Marcos,Getafe,40.312,-3.705
Poligono Industrial Urtinsa,Alcorcon,40.33,-3.85
Poişgono Industrial Europolis,Torrejon de Ardoz,40.465,-3.49
Polişgono Industrial Loranca,Fuenlabrada,40.295,-3.81
Polişgono Industrial El Nogal,Mostoles,40.305,-3.885
Polişgono Industrial Vicalvaro,Madrid,40.403,-3.6
Polişgono Industrial Ambroz,Coslada,40.43,-3.545
Polişgono Industrial Ferrocarril,Alcala de Henares,40.47,-3.38
